[{"added_at":"23/05/2024 20:50:28","name":"Capoeira Bemvindo","location":{"country":"UK","city":"London"},"teacher":"Professora Paulinha","social":{"instagram":"https://www.instagram.com/paulinha_bemvindoangola/"}},{"added_at":"24/05/2024 20:50:28","name":"Capoeira Angola Guerrero de Palmares - Tucson, AZ","location":{"country":"USA","state":"Arizona","city":"Tucson"},"teacher":"Contramestra Onda Mansa and Professor Bambu","social":{"instagram":"https://www.instagram.com/contramestra_ondamansa","website":"http://www.playangola.com/"}},{"added_at":"24/05/2024 22:22:45","name":"Grupo Liberdade De Capoeira - USA","location":{"country":"USA","state":"New Jersey"},"teacher":"Amazonas","social":{"instagram":"https://www.instagram.com/grupo_liberdade_de_capoeira/"}},{"added_at":"24/05/2024 23:35:03","name":"Capoeira Gubbio","location":{"country":"Italy","city":"Gubbio"},"teacher":"Istrutor Cajueiro","social":{"instagram":"https://www.instagram.com/capoeira_gubbio/"}},{"added_at":"25/05/2024 20:25:05","name":"Capoeira Minnesota","location":{"country":"USA","state":"Minnesota","city":"St Paul"},"teacher":"Professor Guerreiro","social":{"instagram":"https://www.instagram.com/Cap_MSP","facebook":"https://www.facebook.com/wacapoeira/","website":"https://wacapoeira.com"}},{"added_at":"27/05/2024 02:08:23","name":"Capoeira Quilombolas - UCA","location":{"country":"USA","state":"Arizona","city":"Tucson"},"teacher":"Mestre Besouro","social":{"instagram":"https://www.instagram.com/ucatucsoncapoeira/","facebook":"https://www.facebook.com/tucsoncapoeiraaz","website":"https://linktr.ee/tucsoncapoeira"}},{"added_at":"27/05/2024 21:17:39","name":"The Life Capoeira podcast","location":{"country":""},"teacher":"Kung Fu","social":{"instagram":"https://www.instagram.com/thelifecapoeira","facebook":"https://www.facebook.com/profile.php?id=100091711040579"}},{"added_at":"27/05/2024 21:53:35","name":"Grupo Candeias ","location":{"country":"Ireland","city":"Galway"},"teacher":"Professora Coruja","social":{"facebook":"https://www.facebook.com/groups/223248641191277/"}},{"added_at":"28/05/2024 01:44:05","name":"Ticum Capoeira - QLC Atlanta","location":{"country":"USA","state":"Georgia","city":"Atlanta"},"teacher":"Ticum","social":{"instagram":"https://www.instagram.com/ticum_capoeira/"}},{"added_at":"01/06/2024 12:44:15","name":"Capoeira Angola Guerreiro de Palmares","location":{"country":"USA","state":"Ohio","city":"Cincinnati"},"teacher":"Lêmure (Perez Johnson)","social":{"instagram":"https://www.instagram.com/cincinnaticapoeirasgv/"}},{"added_at":"01/06/2024 12:44:15","name":"Capoeira Angola Guerreiro de Palmares","location":{"country":"USA","state":"West Virginia","city":"Charleston"},"teacher":"Lêmure (Perez Johnson)","social":{"instagram":"https://www.instagram.com/cincinnaticapoeirasgv/"}},{"added_at":"07/06/2024 18:28:32","name":"International Capoeira School ","location":{"country":"USA","state":"North Carolina","city":"Charlotte "},"teacher":"Instructores Peruca, Reba and Monitora Cigana ","social":{"instagram":"https://www.instagram.com/ncbrazilianartsproject/"}},{"added_at":"08/06/2024 17:09:20","name":"Mucambo Capoeira Angola ","location":{"country":"UK","city":"Brighton"},"teacher":"Boneco ","social":{"instagram":"https://www.instagram.com/mucambocapoeiraangola/","facebook":"https://www.facebook.com/Capoeirabrighton/"}},{"added_at":"13/06/2024 20:16:59","name":"Capoeira Batuque Tem Jogo (SA, HW, BKK)","location":{"country":"USA","state":"California","city":"Los Angeles"},"teacher":"Mestre Versátil","social":{"instagram":"https://www.instagram.com/versachill/","facebook":"https://www.facebook.com/nasr.ismail/"}},{"added_at":"13/06/2024 20:16:59","name":"Capoeira Batuque Tem Jogo (SA, HW, BKK)","location":{"country":"USA","state":"California","city":"San Francisco"},"teacher":"Mestre Versátil","social":{"instagram":"https://www.instagram.com/versachill/","facebook":"https://www.facebook.com/nasr.ismail/"}},{"added_at":"13/06/2024 20:16:59","name":"Capoeira Batuque Tem Jogo (SA, HW, BKK)","location":{"country":"Thailand","city":"Bangkok"},"teacher":"Mestre Versátil","social":{"instagram":"https://www.instagram.com/versachill/","facebook":"https://www.facebook.com/nasr.ismail/"}},{"added_at":"14/06/2024 06:49:50","name":"Capoeira Angola Quintal","location":{"country":"USA","state":"New York","city":"Rochester"},"teacher":"Instrutor Estagiária Fênix","social":{"instagram":"https://www.instagram.com/rochestercapoeira/"}},{"added_at":"14/06/2024 07:00:55","name":"Ungu Capoeira School","location":{"country":"New Zealand","city":"Wellington"},"teacher":"Instrutora Esperança","social":{"instagram":"https://www.instagram.com/kateesperanca/"}},{"added_at":"17/06/2024 17:22:15","name":"Grupo Negaça Capoeira Canindé ","location":{"country":"Brazil","state":"Ceará","city":"Canindé"},"teacher":"Olho de Gato Negaça ","social":{"instagram":"https://www.instagram.com/henriqueolhodegato/"}},{"added_at":"28/06/2024 04:43:31","name":"Coletivo de Capoeira e Cultura Popular Carlos Marighella","location":{"country":"Brazil","city":"Sao Paolo"},"teacher":"Ouriço","social":{"instagram":"https://www.instagram.com/capoeiracarlosmarighella"}},{"added_at":"04/07/2024 01:15:59","name":"Azarão Capoeira ","location":{"country":"USA","state":"New York","city":"Tarrytown, New York"},"teacher":"Seguro","social":{"website":"https://sites.google.com/view/azarocapoeira/home"}},{"added_at":"01/08/2024 14:31:24","name":"West-Island Capoeira (Equipe Capoeira Brasileira - West-Island)","location":{"country":"Canada","state":"Quebec","city":"Montreal"},"teacher":"Mestre Pirata","social":{"instagram":"https://www.instagram.com/westislandcapoeira","facebook":"https://www.facebook.com/westislandcapoeira"}},{"added_at":"01/08/2024 19:31:24","name":"Angoleiros do Mar ","location":{"country":"Ecuador ","city":"Quito"},"teacher":"Chiquitita ","social":{"instagram":"https://www.instagram.com/angoleirosdomarec","facebook":"https://www.facebook.com/sofhia.delfin1?mibextid=ZbWKwL"}},{"added_at":"02/08/2024 21:27:31","name":"Menino Quem Foi Seu Mestre","location":{"country":"USA","city":"Washington DC"},"teacher":"Treinel Jasper","social":{"instagram":"https://www.instagram.com/angoleirxs.4.palestine/"}},{"added_at":"03/08/2024 18:49:04","name":"Washington Capoeira Center (Grupo Mugunjê/Palmarinos)","location":{"country":"","city":"Seattle"},"teacher":"Mestre Mangangá ","social":{"instagram":"https://www.instagram.com/seattlecapoeira"}},{"added_at":"13/08/2024 21:50:10","name":"Capoeira Angola Liberation Movement (CALM)","location":{"country":"USA","state":"Virginia","city":"Richmond"},"teacher":"","social":{"instagram":"https://www.instagram.com/calmangolarva/"}},{"added_at":"01/08/2024 08:20:33","name":"Mukanda ","location":{"country":"Italy","city":"Manciano"},"teacher":"Lorenzo","social":{"instagram":"https://www.instagram.com/capoeira.mukanda.manciano/"}},{"added_at":"19/10/2024 18:08:10","name":"International Capoeira Angola Foundation (FICA)","location":{"country":"USA","state":"Oregon","city":"Portland"},"teacher":"CM Leon","social":{"facebook":"https://www.facebook.com/profile.php?id=100064704574597"}},{"added_at":"19/10/2024 20:52:25","name":"FICA Seattle","location":{"country":"USA","state":"Washington","city":"Seattle"},"teacher":"Mestre Silvinho / Silvio Dos Reis","social":{"instagram":"https://www.instagram.com/unionculturalcenter/","facebook":"https://www.facebook.com/unionculturalcenter"}},{"added_at":"20/10/2024 14:18:11","name":"Angoleiros do Mar Ecuador ","location":{"country":"Ecuador "},"teacher":"Mestre Marcelo/Treinel Chiquitita ","social":{"instagram":"https://www.instagram.com/angoleirosdomarec/","facebook":"https://www.facebook.com/people/Angoleiros-do-Mar-ec/100090616572782/"}}]